,City,Country,Lat,Lng,Max Temp,Humidity,Cloudiness,Wind Speed,City Weather Description
0,Hilo,US,19.7297,-155.09,73.13,83,100,1.99,overcast clouds
1,Lagoa,PT,39.05,-27.9833,59.74,75,51,30.11,broken clouds
2,Namatanai,PG,-3.6667,152.4333,79.23,82,92,3.22,light rain
3,Hirara,JP,24.8,125.2833,73.11,76,100,21.88,overcast clouds
4,Busselton,AU,-33.65,115.3333,53.42,92,1,7.83,clear sky
5,Abha,SA,18.2164,42.5053,57.45,77,0,0,clear sky
6,Albany,US,42.6001,-73.9662,38.28,49,16,5.01,few clouds
7,Kapaa,US,22.0752,-159.319,70.12,88,75,3.44,broken clouds
8,Mataura,NZ,-46.1927,168.8643,50.49,94,75,5.01,broken clouds
9,Ilulissat,GL,69.2167,-51.1,17.62,73,75,19.57,light snow
10,Butaritari,KI,3.0707,172.7902,80.13,81,27,12.46,scattered clouds
11,Katsuura,JP,35.1333,140.3,52.79,84,95,10.8,overcast clouds
12,Puerto Ayora,EC,-0.7393,-90.3518,75.16,82,84,8.01,broken clouds
13,Sheltozero,RU,61.3667,35.3667,19.92,77,100,3.71,overcast clouds
14,Rio Bravo,MX,25.9833,-98.1,58.93,70,100,8.66,light rain
15,Rikitea,PF,-23.1203,-134.9692,74.08,73,77,10.92,broken clouds
16,Karangasem,ID,-8.45,115.6167,76.24,80,100,6.89,overcast clouds
17,Kichera,RU,55.9375,110.0997,-14.82,85,62,6.15,broken clouds
18,Cape Town,ZA,-33.9258,18.4232,73.27,69,95,3,overcast clouds
19,Ocos,GT,14.5094,-92.1933,86.18,70,39,3.6,scattered clouds
20,Severo-Kurilsk,RU,50.6789,156.125,26.02,71,85,15.3,light snow
21,Dingle,PH,10.9995,122.6711,76.01,94,99,7,overcast clouds
22,Komsomolskiy,UZ,40.4272,71.7189,41.72,75,100,0,overcast clouds
23,Floro,NO,61.5996,5.0328,40.96,70,0,13.8,clear sky
24,Hamilton,US,39.1834,-84.5333,36.59,56,0,4.61,clear sky
25,Jamestown,US,42.097,-79.2353,29.84,89,100,13.8,overcast clouds
26,Richards Bay,ZA,-28.783,32.0377,72.79,75,10,15.73,clear sky
27,Pimentel,PE,-6.8367,-79.9342,79.09,57,40,6.91,scattered clouds
28,Kodiak,US,57.79,-152.4072,38.71,52,0,36.82,clear sky
29,Torbay,CA,47.6666,-52.7314,42.39,87,95,5.99,overcast clouds
30,Bluff,NZ,-46.6,168.3333,50.81,71,57,19.55,broken clouds
31,Aklavik,CA,68.2191,-135.0107,2.88,96,100,6.96,overcast clouds
32,East London,ZA,-33.0153,27.9116,74.07,85,16,5.19,few clouds
33,Hualmay,PE,-11.0964,-77.6139,72.75,71,8,10.45,clear sky
34,Malanje,AO,-9.5402,16.341,68.49,89,86,3.8,light rain
35,Qaanaaq,GL,77.484,-69.3632,-26.52,83,8,6.67,clear sky
36,Sitka,US,57.0531,-135.33,33.69,80,100,12.66,light snow
37,Nikolskoye,RU,59.7035,30.7861,19.8,86,100,2.93,overcast clouds
38,Atuona,PF,-9.8,-139.0333,77.61,78,23,19.48,light rain
39,Arraial Do Cabo,BR,-22.9661,-42.0278,76.86,83,40,27.63,scattered clouds
40,Karratha,AU,-20.7377,116.8463,81.86,56,0,12.71,clear sky
41,Altamira,BR,-3.2033,-52.2064,86.76,63,95,2.39,overcast clouds
42,Kosikha,RU,53.3617,84.5822,-5.48,95,5,6.26,clear sky
43,Lorengau,PG,-2.0226,147.2712,80.44,79,98,4.83,overcast clouds
44,Menongue,AO,-14.6585,17.691,77.85,42,77,4.07,broken clouds
45,Teterow,DE,53.7833,12.5667,33.96,89,45,5.21,scattered clouds
46,Yerbogachen,RU,61.2767,108.0108,-11.72,96,100,8.23,overcast clouds
47,Bengkulu,ID,-3.8004,102.2655,75.27,89,100,3.15,moderate rain
48,Bredasdorp,ZA,-34.5322,20.0403,69.44,69,55,13.53,broken clouds
49,Vestmanna,FO,62.1564,-7.1664,45.52,100,100,1.14,light rain
50,Hithadhoo,MV,-0.6,73.0833,81.54,64,48,5.26,scattered clouds
51,Kavaratti,IN,10.5669,72.642,81.63,73,22,3.67,few clouds
52,Doha,QA,25.2867,51.5333,76.89,69,0,8.05,clear sky
53,Mandalgovi,MN,45.7625,106.2708,4.57,40,100,11.7,overcast clouds
54,Matnog,PH,12.5878,124.0875,80.28,84,94,16.62,overcast clouds
55,Poya,NC,-21.35,165.15,78.53,86,99,5.12,overcast clouds
56,Half Moon Bay,US,37.4636,-122.4286,52.43,92,100,20.71,heavy intensity rain
57,Castro,BR,-24.7911,-50.0119,74.79,74,23,8.95,few clouds
58,Kahului,US,20.8947,-156.47,75.85,83,40,6.91,scattered clouds
59,Ushuaia,AR,-54.8,-68.3,58.66,44,75,16.11,broken clouds
60,Hermanus,ZA,-34.4187,19.2345,68.81,83,71,10.29,broken clouds
61,Ola,RU,59.5833,151.2833,20.07,65,100,15.23,light snow
62,Turka,UA,49.1541,23.0297,27.79,93,73,2.98,broken clouds
63,Naze,JP,28.3667,129.4833,58.71,73,99,17.31,overcast clouds
64,Chokurdakh,RU,70.6333,147.9167,0.93,98,100,2.86,light snow
65,Raudeberg,NO,61.9875,5.1352,39.87,70,34,8.16,scattered clouds
66,Northam,GB,51.0333,-4.2167,43.25,83,20,5.3,few clouds
67,Dikson,RU,73.5069,80.5464,23.65,95,100,19.57,light snow
68,Bathsheba,BB,13.2167,-59.5167,86.61,62,20,21.85,light rain
69,Vao,NC,-22.6667,167.4833,78.24,86,99,17.34,overcast clouds
70,Jonesboro,US,35.8423,-90.7043,40.69,48,0,9.22,clear sky
71,Thompson,CA,55.7435,-97.8558,-9.6,85,100,3.09,overcast clouds
72,Vaini,TO,-21.2,-175.2,75.36,94,20,1.14,few clouds
73,Guamuchil,MX,25.4667,-108.1,83.1,21,0,1.54,clear sky
74,Santa Isabel,BR,-23.3156,-46.2214,83.91,61,50,3.24,scattered clouds
75,Matara,LK,5.9485,80.5353,76.08,90,76,5.37,broken clouds
76,Nishihara,JP,26.1842,127.7558,65.48,72,100,14.97,overcast clouds
77,Noumea,NC,-22.2763,166.4572,82,99,100,5.55,overcast clouds
78,Mar Del Plata,AR,-38.0023,-57.5575,69.84,83,75,17.27,broken clouds
79,Berlevag,NO,70.8578,29.0864,32,86,100,12.66,overcast clouds
80,Jalu,LY,29.0331,21.5482,62.73,37,0,6.71,clear sky
81,Saskylakh,RU,71.9167,114.0833,-24.99,100,100,4.18,overcast clouds
82,Yar,RU,58.249,52.1026,3.9,98,64,3.94,broken clouds
83,Pervomayskoye,RU,43.919,46.7102,40.1,58,11,16.55,few clouds
84,Melfi,IT,40.9965,15.6514,47.5,87,100,1.23,overcast clouds
85,Bambanglipuro,ID,-7.95,110.2833,76.95,79,100,1.92,overcast clouds
86,Plattsburgh,US,44.6995,-73.4529,36.5,56,75,12.66,broken clouds
87,Ancud,CL,-41.8697,-73.8203,55.08,56,60,8.39,broken clouds
88,High Level,CA,58.5169,-117.136,-4.83,86,100,4.45,overcast clouds
89,Codrington,AU,-38.2667,141.9667,45.5,92,1,6.67,clear sky
90,Praia,CV,14.9215,-23.5087,76.12,59,55,16.78,broken clouds
91,Beruwala,LK,6.4788,79.9828,78.3,82,96,0.78,overcast clouds
92,Pevek,RU,69.7008,170.3133,29.7,76,85,25.64,overcast clouds
93,Yellowknife,CA,62.456,-114.3525,-12.05,98,100,1.39,overcast clouds
94,Tura,IN,25.5198,90.2201,61.97,84,0,3.76,clear sky
95,Skibbereen,IE,51.55,-9.2667,51.12,77,100,12.17,overcast clouds
96,Ahipara,NZ,-35.1667,173.1667,58.28,76,100,9.86,overcast clouds
97,Ostrovnoy,RU,68.0531,39.5131,28.11,95,100,8.14,overcast clouds
98,La Ronge,CA,55.1001,-105.2842,-4.13,89,100,7.07,overcast clouds
99,Caravelas,BR,-17.7125,-39.2481,82.92,69,100,9.57,overcast clouds
100,San Patricio,US,28.017,-97.5169,58.86,68,21,9.73,few clouds
101,Punta Arenas,CL,-53.15,-70.9167,53.71,58,100,29.93,light intensity shower rain
102,Gorodets,RU,56.6514,43.475,8.38,97,48,0.72,scattered clouds
103,Sembe,CG,1.6481,14.5806,74.3,84,59,0.87,light rain
104,Carnarvon,AU,-24.8667,113.6333,69.06,77,2,16.44,clear sky
105,Mount Gambier,AU,-37.8333,140.7667,46.51,95,12,5.59,few clouds
106,Ponta Do Sol,PT,32.6667,-17.1,72.01,73,29,6.44,scattered clouds
107,Aci Castello,IT,37.5583,15.1346,59.22,72,40,10.36,scattered clouds
108,Gizo,SB,-8.103,156.8419,80.29,79,100,6.02,overcast clouds
109,Tilichiki,RU,60.4667,166.1,21.61,95,97,4.29,overcast clouds
110,Yashkul,RU,46.1711,45.3435,29.07,45,15,13.35,few clouds
111,Bud,US,39.447,-86.1758,31.89,64,60,3.06,broken clouds
112,Aquiraz,BR,-3.9014,-38.3911,87.46,58,68,13.85,moderate rain
113,Georgetown,MY,5.4112,100.3354,80.53,85,20,9.22,few clouds
114,Conde,BR,-7.2597,-34.9075,85.46,62,40,13.8,scattered clouds
115,Norman Wells,CA,65.282,-126.8329,9.27,93,100,11.63,light snow
116,Sindor,RU,62.8629,51.8905,0.55,98,80,3.56,broken clouds
117,Bontang,ID,0.1333,117.5,76.53,89,96,4.7,overcast clouds
118,Faaborg,DK,55.0951,10.2423,41,86,99,7.43,overcast clouds
119,Bethel,US,41.3712,-73.414,41.02,52,40,16.11,scattered clouds
120,Barrow,US,71.2906,-156.7887,19.42,93,100,10.36,mist
121,Sinnamary,GF,5.3833,-52.95,82.44,71,99,11.5,overcast clouds
122,Ribeira Grande,PT,38.5167,-28.7,63,77,40,21.99,light rain
123,Camacha,PT,33.0833,-16.3333,63.82,77,40,18.41,scattered clouds
124,Tasiilaq,GL,65.6145,-37.6368,39.36,76,98,7.38,overcast clouds
125,Mahebourg,MU,-20.4081,57.7,76.24,73,18,8.05,few clouds
126,Tarakan,ID,3.3,117.6333,80.49,76,90,4.38,light rain
127,Savonlinna,FI,61.8699,28.88,26.65,93,100,2.3,overcast clouds
128,Hasaki,JP,35.7333,140.8333,46.29,83,100,13.73,overcast clouds
129,Guerrero Negro,MX,27.9769,-114.0611,62.98,64,54,11.81,broken clouds
130,Acapetahua,MX,15.2833,-92.7,86.72,51,8,3.36,clear sky
131,Port Alfred,ZA,-33.5906,26.891,67.17,90,58,3,broken clouds
132,Port Elizabeth,ZA,-33.918,25.5701,68.31,88,68,4,broken clouds
133,Barguzin,RU,53.6167,109.6167,-1.75,98,98,3.38,light snow
134,Mirabad,AF,30.4362,61.8383,57.11,48,0,11.01,clear sky
135,Pak Phanang,TH,8.3511,100.202,78.22,84,100,4.34,overcast clouds
136,Lata,PT,40.1629,-8.3327,48.92,71,0,5.77,clear sky
137,Atbasar,KZ,51.8,68.3333,4.24,80,100,16.44,overcast clouds
138,Turbat,PK,26.0023,63.044,73.24,22,37,2.51,scattered clouds
139,Sistranda,NO,63.7256,8.834,33.76,81,4,10.22,clear sky
140,Yar-Sale,RU,66.8333,70.8333,-6.23,94,16,8.66,few clouds
141,Naantali,FI,60.4674,22.0243,33.85,93,100,4.61,overcast clouds
142,Sept-Iles,CA,50.2001,-66.3821,34.05,76,61,14,broken clouds
143,Hobart,AU,-42.8794,147.3294,51.66,76,100,0,overcast clouds
144,Huambo,AO,-12.7761,15.7392,67.93,70,69,1.43,broken clouds
145,Faya,SA,18.3851,42.4509,57.72,47,14,4.27,few clouds
146,Sao Filipe,CV,14.8961,-24.4956,75.74,64,56,11.79,broken clouds
147,Valdivia,CL,-39.8142,-73.2459,66.29,31,0,5.14,clear sky
148,Mahajanga,MG,-15.7167,46.3167,82.42,74,20,8.05,few clouds
149,Flin Flon,CA,54.7682,-101.865,-5.6,94,100,7.25,light snow
150,Kimbe,PG,-5.5502,150.1429,75.97,94,100,1.99,light rain
151,Saint-Philippe,RE,-21.3585,55.7679,74.79,78,51,6.46,broken clouds
152,Kulu,TR,39.0951,33.0799,50.92,76,63,4.14,broken clouds
153,Burgas,BG,42.5061,27.4678,41.11,93,100,6.91,moderate rain
154,Inhambane,MZ,-23.865,35.3833,75.18,83,40,10.56,scattered clouds
155,Korla,CN,41.7597,86.1469,18.28,21,17,0.67,few clouds
156,New Norfolk,AU,-42.7826,147.0587,51.3,67,70,1.79,broken clouds
157,Xining,CN,36.6167,101.7667,25.88,33,32,0.45,scattered clouds
158,Nome,US,64.5011,-165.4064,24.87,86,100,10.36,overcast clouds
159,Mogadishu,SO,2.0371,45.3438,80.65,79,91,14.65,overcast clouds
160,Bonnyville,CA,54.2668,-110.735,-11.4,99,95,0.78,overcast clouds
161,Ambon,ID,-3.6954,128.1814,75.34,94,40,9.22,scattered clouds
162,Avarua,CK,-21.2078,-159.775,78.85,83,75,11.5,broken clouds
163,Lebu,CL,-37.6167,-73.65,59.76,58,0,17.6,clear sky
164,Okha,RU,53.5739,142.9478,0.23,90,100,21.18,overcast clouds
165,Meulaboh,ID,4.1363,96.1285,75.61,89,100,0.69,overcast clouds
166,Upernavik,GL,72.7868,-56.1549,1.96,95,100,19.28,overcast clouds
167,Makat,KZ,47.6469,53.3463,25.45,46,0,6.38,clear sky
168,Shiringushi,RU,53.8485,42.7676,14.31,92,75,4.5,broken clouds
169,Kasama,ZM,-10.2129,31.1808,63.57,89,100,5.26,overcast clouds
170,Faanui,PF,-16.4833,-151.75,79.48,79,79,14.63,light rain
171,Watertown,US,42.3709,-71.1828,43.29,42,40,20.71,scattered clouds
172,Linxia,CN,35.6003,103.2064,23.95,35,2,1.07,clear sky
173,Osypenko,UA,46.9136,36.8253,38.28,58,100,26.98,overcast clouds
174,Dole,FR,47.0833,5.5,43.5,75,100,12.66,overcast clouds
175,Wladyslawowo,PL,54.7909,18.4009,37.47,82,100,10.07,overcast clouds
176,Airai,TL,-8.9266,125.4092,58.91,84,87,1.77,overcast clouds
177,Panzhihua,CN,26.5851,101.7128,54.77,75,0,1.72,clear sky
178,Benghazi,LY,32.1167,20.0667,65.53,60,34,10.74,scattered clouds
179,El Viejo,NI,12.6633,-87.1672,82.62,74,75,4.61,broken clouds
180,Diffa,NE,13.3154,12.6113,80.31,16,12,7.07,few clouds
181,Kaitangata,NZ,-46.2817,169.8464,46.02,70,32,10.45,scattered clouds
182,Salalah,OM,17.0151,54.0924,78.89,73,75,3.44,broken clouds
183,Pointe Michel,DM,15.25,-61.3833,82.69,68,15,11.03,few clouds
184,Olafsvik,IS,64.8945,-23.7142,42.22,80,75,32.86,broken clouds
185,Tuktoyaktuk,CA,69.4541,-133.0374,-0.9,95,99,5.03,overcast clouds
186,Clyde River,CA,70.4692,-68.5914,-28.97,62,0,4.61,clear sky
187,Itoman,JP,26.1247,127.6694,66.22,72,100,14.97,overcast clouds
188,Dukat,RU,62.55,155.55,-15.84,100,88,3.09,overcast clouds
189,Necochea,AR,-38.5473,-58.7368,66.38,67,83,11.56,broken clouds
190,Saint-Georges,GD,12.0564,-61.7485,83.88,74,40,23.02,scattered clouds
191,Coihaique,CL,-45.5752,-72.0662,58.95,36,75,9.22,broken clouds
192,Izumo,JP,35.3667,132.7667,44.55,64,100,10.54,overcast clouds
193,Buin,CL,-33.7333,-70.75,83.43,21,0,9.01,clear sky
194,Pacific Grove,US,36.6177,-121.9166,58.06,74,100,27,overcast clouds
195,Banda Aceh,ID,5.5577,95.3222,78.13,83,96,5.99,overcast clouds
196,Saint-Medard-En-Jalles,FR,44.8969,-0.7214,47.3,81,100,9.22,overcast clouds
197,Sulingen,DE,52.6833,8.8,38.64,86,100,7.74,overcast clouds
198,Sioux Lookout,CA,50.1001,-91.917,14.07,85,100,8.05,overcast clouds
199,Athabasca,CA,54.7169,-113.2854,-21.59,99,88,0.87,overcast clouds
200,Abu Samrah,SY,35.3029,37.1841,56.44,78,41,4.16,scattered clouds
201,Saint George,US,37.1041,-113.5841,43.43,47,0,0,clear sky
202,Merano,IT,46.6682,11.1595,41.67,79,63,5.14,broken clouds
203,Nanortalik,GL,60.1432,-45.2371,26.06,74,8,28.59,clear sky
204,Akureyri,IS,65.6835,-18.0878,39.13,70,15,9.22,few clouds
205,Ingham,US,42.6,-84.3833,35.91,64,0,9.22,clear sky
206,Hare Bay,CA,48.8499,-54.0148,38.8,78,100,20.13,overcast clouds
207,Lasa,IT,46.6166,10.7002,41.88,83,71,1.32,broken clouds
208,Khatanga,RU,71.9667,102.5,11.98,92,100,15.14,overcast clouds
209,Hambantota,LK,6.1241,81.1185,77.41,87,63,8.52,broken clouds
210,Shenjiamen,CN,29.9576,122.298,45.97,94,100,20,overcast clouds
211,Huilong,CN,31.8111,121.655,41.61,64,100,11.99,overcast clouds
212,Palmas Bellas,PA,9.2319,-80.0867,89.26,67,12,12.08,light rain
213,Lichuan,CN,30.3,108.85,29.01,90,100,2.42,overcast clouds
214,Huarmey,PE,-10.0681,-78.1522,72.7,73,16,10.25,few clouds
215,Erenhot,CN,43.6475,111.9767,7.5,58,47,11.23,scattered clouds
216,San Cristobal,VE,7.7669,-72.225,64.58,84,89,4.47,overcast clouds
217,Henties Bay,NA,-22.116,14.2845,63.07,83,3,16.98,clear sky
218,Te Anau,NZ,-45.4167,167.7167,38.39,91,60,1.83,broken clouds
219,Ashqelon,IL,31.6693,34.5715,66.09,56,0,9.4,clear sky
220,Charleston,US,32.7766,-79.9309,58.1,32,0,13.8,clear sky
221,Melilla,ES,35.2937,-2.9383,61.18,67,40,4.61,scattered clouds
222,General Pico,AR,-35.6566,-63.7568,81.16,32,10,9.42,clear sky
223,Fortuna,US,40.5982,-124.1573,41.34,97,75,1.99,broken clouds
224,Paramonga,PE,-10.6667,-77.8333,72.27,73,10,9.78,clear sky
225,Lixourion,GR,38.2019,20.4314,57.2,88,40,6.91,scattered clouds
226,Lethem,GY,3.3803,-59.7968,88.72,49,64,9.6,light rain
227,Longyearbyen,SJ,78.2186,15.6401,35.44,87,75,4.61,light intensity shower rain
228,Cherskiy,RU,68.75,161.3,-7.85,98,100,10.98,light snow
229,Yurty,RU,56.0498,97.6348,-3.68,95,100,7.16,overcast clouds
230,Samarai,PG,-10.6167,150.6667,81.12,81,100,5.64,overcast clouds
231,Constantine,DZ,36.365,6.6147,51.21,71,0,2.3,clear sky
232,Miri,MY,4.4148,114.0089,75.34,94,40,2.3,scattered clouds
233,Port Hardy,CA,50.6996,-127.4199,26.78,80,75,3.44,broken clouds
234,Narasannapeta,IN,18.4167,84.05,73.8,80,0,6.15,clear sky
235,Goderich,CA,43.7501,-81.7165,34.92,74,100,14.97,overcast clouds
236,Hailey,US,43.5196,-114.3153,31.8,86,100,17.27,snow
237,Pisco,PE,-13.7,-76.2167,73.45,64,0,9.22,clear sky
238,Tierranueva,MX,21.6833,-100.5667,58.21,79,100,5.91,overcast clouds
239,Voh,NC,-20.9667,164.7,77.58,88,100,4.72,overcast clouds
240,Taupo,NZ,-38.6833,176.0833,50.14,81,48,8.39,scattered clouds
241,Brisbane,AU,-27.4679,153.0281,62.58,89,75,11.5,broken clouds
242,Vilhena,BR,-12.7406,-60.1458,79.02,83,75,10.36,broken clouds
243,Sabang,ID,5.8933,95.3214,81.61,74,95,9.53,overcast clouds
244,Tabas,IR,33.5959,56.9244,61.02,36,11,6.91,few clouds
245,Aleksandrov Gay,RU,50.147,48.5704,24.1,58,0,6.49,clear sky
246,Puerto Baquerizo Moreno,EC,-0.9,-89.6,74.39,69,75,8.05,broken clouds
247,Leningradskiy,RU,69.3833,178.4167,25.61,78,100,10.07,overcast clouds
248,Collie,AU,-33.3667,116.15,52,89,0,3.38,clear sky
249,Kaura Namoda,NG,12.5898,6.5779,80.96,21,17,5.37,few clouds
250,Kysyl-Syr,RU,63.8986,122.7617,-12.95,97,100,5.48,overcast clouds
251,Russell,US,32.3502,-85.1999,53.96,28,0,0,clear sky
252,San Lorenzo De El Escorial,ES,40.5914,-4.1474,49.26,61,1,3.96,clear sky
253,Balikpapan,ID,-1.2675,116.8289,76.19,94,20,3.44,few clouds
254,Rockingham,US,42.9668,-71.0995,42.22,49,7,4,clear sky
255,Sisimiut,GL,66.9395,-53.6735,7.7,87,63,11.52,broken clouds
256,Vila Velha,BR,-20.3297,-40.2925,78.75,94,100,9.22,overcast clouds
257,Bambous Virieux,MU,-20.3428,57.7575,76.21,78,40,3.44,scattered clouds
258,Chuy,UY,-33.6971,-53.4616,80.06,67,77,10.07,broken clouds
259,Ballina,AU,-28.8667,153.5667,61.02,99,100,18.75,light rain
260,Constitucion,CL,-35.3333,-72.4167,66.43,51,1,14.85,clear sky
261,Muisne,EC,0.6,-80.0333,77.23,77,99,11.45,overcast clouds
262,Pampas,PE,-12.4,-74.9,67.44,25,3,7.4,clear sky
263,Tocopilla,CL,-22.092,-70.1979,70.2,63,11,6.73,few clouds
264,Yushan,CN,31.3776,120.9543,39.97,56,100,7.09,overcast clouds
265,Sao Miguel Do Guama,BR,-1.6267,-47.4833,87.57,57,87,4.45,overcast clouds
266,Camacari,BR,-12.6975,-38.3242,83.97,73,91,9.37,overcast clouds
267,Luancheng,CN,37.8792,114.6517,17.76,26,1,5.53,clear sky
268,Filadelfia,US,39.9523,-75.1638,43.12,44,40,20.71,scattered clouds
269,Saint-Pierre,RE,-21.3393,55.4781,74.91,69,0,4.61,clear sky
270,Novikovo,RU,51.1537,37.8879,26.02,64,100,12.64,overcast clouds
271,Dubbo,AU,-32.25,148.6167,53.73,87,0,9.22,clear sky
272,Leshukonskoye,RU,64.8989,45.7622,22.69,97,100,3.78,light snow
273,Panguna,PG,-6.3164,155.4848,68.74,94,100,0.11,overcast clouds
274,Kloulklubed,PW,7.0419,134.2556,75.7,70,71,14.74,broken clouds
275,Souillac,MU,-20.5167,57.5167,75.58,78,40,3.44,scattered clouds
276,Fairbanks,US,64.8378,-147.7164,1.74,82,100,3.44,light snow
277,Bandiagara,ML,14.3501,-3.6104,87.94,12,47,5.53,scattered clouds
278,Koboko,UG,3.4136,30.9599,68.14,72,97,4.65,overcast clouds
279,Bahia Honda,CU,22.9036,-83.1592,82.35,68,95,13.87,overcast clouds
280,Rio Gallegos,AR,-51.6226,-69.2181,62.65,23,75,14.97,broken clouds
281,Gimbi,ET,9.1667,35.8333,60.21,56,98,1.86,overcast clouds
282,Miles City,US,46.4083,-105.8406,29.7,59,99,6.22,overcast clouds
283,Andros Town,BS,24.7,-77.7667,80.56,67,37,17.58,scattered clouds
284,Brae,GB,60.3964,-1.353,47.7,91,100,25.08,light rain
285,Kushiro,JP,42.975,144.3747,26.85,50,4,12.57,clear sky
286,Plomarion,GR,38.9767,26.3681,58.96,80,56,11.03,broken clouds
287,Monterey,US,36.2505,-121.2516,48.18,80,100,10.27,overcast clouds
288,Saldanha,ZA,-33.0117,17.9442,68.05,81,72,15.61,broken clouds
289,Saint Anthony,US,45.0205,-93.218,27.66,60,20,16.11,few clouds
290,Fukue,JP,32.6881,128.8419,49.19,58,100,19.28,light rain
291,Nipawin,CA,53.3668,-104.0009,-5.76,77,100,14.97,overcast clouds
292,Hofn,IS,64.2539,-15.2082,42.82,87,75,9.22,broken clouds
293,Zhigansk,RU,66.7697,123.3711,-10.77,99,100,3.69,light snow
294,Oksfjord,NO,70.2396,22.3479,37.58,93,98,2.37,overcast clouds
295,Cidreira,BR,-30.1811,-50.2056,74.91,84,100,15.39,overcast clouds
296,Vestmannaeyjar,IS,63.4427,-20.2734,45.59,76,75,25.32,broken clouds
297,Nova Varos,RS,43.4606,19.8114,31.14,95,100,2.33,overcast clouds
298,Gorontalo,ID,0.5412,123.0595,74.3,94,93,3.6,overcast clouds
299,Karwar,IN,14.8,74.1333,76.32,64,0,4.27,clear sky
300,Markova,UA,48.6758,24.4138,25.86,96,93,2.1,overcast clouds
301,Tumut,AU,-35.3,148.2167,57.99,85,88,2.13,overcast clouds
302,Oussouye,SN,12.485,-16.5469,84.29,27,73,10.76,broken clouds
303,Biskamzha,RU,53.4497,89.5272,-5.96,94,79,2.91,broken clouds
304,Baykit,RU,61.67,96.37,-22.99,98,52,3,broken clouds
305,Ust-Tsilma,RU,65.441,52.1498,13.15,96,100,4.41,light snow
306,Saint-Joseph,RE,-21.3667,55.6167,73.78,78,43,5.95,scattered clouds
307,Isangel,VU,-19.55,169.2667,79.09,88,83,9.46,broken clouds
308,Sinazongwe,ZM,-17.2614,27.4618,81.48,37,0,6.85,clear sky
309,Pangnirtung,CA,66.1451,-65.7125,3.2,47,100,0,overcast clouds
310,Fort Nelson,CA,58.8053,-122.7002,-27.81,68,0,3.44,clear sky
311,Shimoda,JP,34.6667,138.95,48.11,80,88,9.57,overcast clouds
312,Danshui,CN,22.7984,114.4672,49.55,70,96,8.86,overcast clouds
313,Khasan,RU,42.4308,130.6434,14.99,54,3,16.17,clear sky
314,Svarstad,NO,59.399,9.9698,34.38,44,73,1.01,broken clouds
315,Lompoc,US,34.6391,-120.4579,55.53,85,100,8.05,overcast clouds
316,Tingo Maria,PE,-9.2895,-76.0088,77.31,94,75,3.44,broken clouds
317,Hulan,CN,45.9833,126.6,-0.29,84,7,10.87,clear sky
318,Porto Novo,BJ,6.4965,2.6036,85.82,68,89,7.72,overcast clouds
319,Padang,ID,-0.9492,100.3543,76.57,88,100,4.45,moderate rain
320,Abaza,RU,52.655,90.0928,-10.28,96,28,3.47,scattered clouds
321,Kieta,PG,-6.2167,155.6333,78.46,85,100,3.13,overcast clouds
322,Jasper,US,37.2001,-94.3502,48.87,32,40,17.27,scattered clouds
323,Bubaque,GW,11.2833,-15.8333,81.88,55,37,12.73,scattered clouds
324,Comodoro Rivadavia,AR,-45.8667,-67.5,78.66,8,0,21.85,clear sky
325,Igarka,RU,67.4667,86.5833,3.78,96,100,10.6,overcast clouds
326,Rabo De Peixe,PT,37.8,-25.5833,63.28,97,40,5.75,scattered clouds
327,Tupelo,US,34.2576,-88.7034,44.42,46,0,6.91,clear sky
328,Antipolo,PH,14.5864,121.1753,77.92,90,75,3.44,light rain
329,Bairiki,KI,1.3292,172.9752,80.6,83,20,9.22,light rain
330,Dunedin,NZ,-45.8742,170.5036,47.8,68,27,14,scattered clouds
331,Dothan,US,31.2232,-85.3905,54.84,37,0,9.22,clear sky
332,Canutama,BR,-6.5339,-64.3831,91.83,51,99,3.71,overcast clouds
333,Dongsheng,CN,39.8161,109.9776,13.46,15,62,14.7,broken clouds
334,Vardo,NO,70.3705,31.1107,31.98,80,75,8.05,broken clouds
335,Boyarka,UA,50.3191,30.2973,30.06,78,98,5.7,overcast clouds
336,Lakes Entrance,AU,-37.8811,147.981,50.07,89,12,3.49,few clouds
337,Toora-Khem,RU,52.4675,96.11,-10.01,97,100,1.97,overcast clouds
338,Santa Rosa,PH,14.3122,121.1114,80.02,86,100,12.19,overcast clouds
339,Sao Joao Da Barra,BR,-21.6403,-41.0511,80.69,88,92,21.09,overcast clouds
340,Teya,RU,60.3778,92.6267,-22.29,100,100,2.64,overcast clouds
341,Howard,US,39.2504,-76.933,43.25,48,2,18.01,clear sky
342,Boyolangu,ID,-8.1181,111.8935,73.99,83,94,3.47,overcast clouds
343,Srandakan,ID,-7.9386,110.2506,77.2,79,100,1.81,overcast clouds
344,Sangar,RU,63.9242,127.4739,-25.69,94,100,4.38,overcast clouds
345,Kutum,SD,14.2,24.6667,76.33,22,46,8.77,scattered clouds
346,West Plains,US,36.7281,-91.8524,39.97,53,75,11.5,broken clouds
347,Harper,LR,4.375,-7.7169,81.28,73,99,7.2,overcast clouds
348,Kigali,RW,-1.95,30.0588,67.48,77,75,2.3,broken clouds
349,Zolotukhino,RU,52.0842,36.3772,23.63,72,100,12.5,overcast clouds
350,Rawson,AR,-43.3002,-65.1023,80.62,20,0,20.96,clear sky
351,Palana,RU,59.1167,159.9667,11.41,78,46,11.39,scattered clouds
352,Namtsy,RU,62.7161,129.6658,-26.43,97,100,0.85,overcast clouds
353,Kavieng,PG,-2.5744,150.7967,81.57,74,88,4.34,overcast clouds
354,Santiago Del Estero,AR,-27.7951,-64.2615,71.98,69,100,13.58,overcast clouds
355,Mandera,KE,3.9366,41.867,90.77,26,82,11.79,broken clouds
356,Omsukchan,RU,62.5333,155.8,-15.81,100,88,3.83,overcast clouds
357,Saint-Augustin,CA,51.226,-58.6502,39.42,99,100,27.87,moderate rain
358,Finspang,SE,58.7058,15.7674,37.51,95,100,4.14,overcast clouds
359,Ullapool,GB,57.8987,-5.1604,52.36,91,100,6.17,overcast clouds
360,Mpulungu,ZM,-8.7623,31.1141,71.35,84,100,0.31,overcast clouds
361,Srednekolymsk,RU,67.45,153.6833,-16.11,96,100,17.67,overcast clouds
362,Anlu,CN,31.1661,112.5831,35.8,42,97,4.74,overcast clouds
363,Maniitsoq,GL,65.4167,-52.9,12.24,73,88,13.51,overcast clouds
364,Lupiro,TZ,-8.3833,36.6667,73,88,75,1.83,moderate rain
365,Panaba,MX,21.2833,-88.2667,88.07,49,13,13.51,few clouds
366,Dickinson,US,29.4608,-95.0513,58.15,72,0,9.22,clear sky
367,Turukhansk,RU,65.8167,87.9833,-1.46,99,100,7.4,overcast clouds
368,Puerto Leguizamo,CO,-0.1934,-74.7819,91.67,45,29,7.36,scattered clouds
369,Adolfo Lopez Mateos,MX,28.4667,-107.3,58.93,24,2,9.53,clear sky
370,San Antonio,US,29.4241,-98.4936,51.58,56,100,10.36,overcast clouds
371,Port Blair,IN,11.6667,92.75,82.44,83,40,2.3,mist
372,Shubarkuduk,KZ,49.1447,56.4872,19.71,48,2,5.53,clear sky
373,Victoria,HK,22.2855,114.1577,62.26,78,91,11.99,overcast clouds
374,Lakatoro,VU,-16.0999,167.4164,80.56,84,91,9.22,overcast clouds
375,Ostersund,SE,63.1792,14.6357,28.85,100,100,15.01,overcast clouds
376,Gamboma,CG,-1.8764,15.8644,77.41,74,78,3.44,broken clouds
377,Baicheng,CN,45.6167,122.8167,3.36,64,3,12.35,clear sky
378,Bonthe,SL,7.5264,-12.505,84.58,66,82,8.84,light rain
379,Okhotsk,RU,59.3833,143.3,-4.05,99,100,8.03,overcast clouds
380,Cap Malheureux,MU,-19.9842,57.6142,76.46,68,50,1.99,scattered clouds
381,Sladkovo,RU,55.5284,70.3385,-7.85,89,55,6.2,broken clouds
382,Desnogorsk,RU,54.1508,33.2815,21.22,84,99,8.63,overcast clouds
383,Khandbari,NP,27.3747,87.2039,56.07,74,1,2.77,clear sky
384,Severnyy,RU,50.677,36.5532,26.64,59,0,15.66,clear sky
385,Kostomuksha,RU,64.571,30.5767,24.17,95,100,2.62,light snow
386,Nabire,ID,-3.3667,135.4833,75.69,89,100,0.74,overcast clouds
387,San Quintin,MX,30.4833,-115.95,58.21,65,89,7.4,overcast clouds
388,Millinocket,US,45.6573,-68.7098,35.71,55,100,18.41,overcast clouds
389,Knysna,ZA,-34.0363,23.0471,68.54,79,80,2.57,broken clouds
390,Kalmunai,LK,7.4167,81.8167,77.65,85,23,3.8,few clouds
391,Cassilandia,BR,-19.1133,-51.7342,87.28,41,100,3.22,overcast clouds
392,Muravlenko,RU,63.7898,74.523,-9.94,89,38,8.37,scattered clouds
393,Hammerfest,NO,70.6634,23.6821,36.05,100,75,4.61,drizzle
394,Ambilobe,MG,-13.2,49.05,78.06,79,88,2.13,light rain
395,Karasburg,NA,-28.0167,18.75,81.18,33,85,12.75,light rain
396,Hobyo,SO,5.3505,48.5268,80.74,75,99,15.57,light rain
397,Zaraza,VE,9.3503,-65.3245,87.21,45,12,7.02,few clouds
398,Kantang,TH,7.4054,99.5156,76.21,88,100,4.05,overcast clouds
399,Ouegoa,NC,-20.35,164.4333,80.6,83,98,5.53,overcast clouds
400,Waingapu,ID,-9.6567,120.2641,78.85,83,93,1.1,overcast clouds
401,Lapa,BR,-25.7697,-49.7158,73.56,80,91,5.7,light rain
402,Esperance,AU,-33.8667,121.9,62.91,90,34,16.13,scattered clouds
403,Mitu,CO,1.1983,-70.1733,89.56,47,32,6.33,scattered clouds
404,Touros,BR,-5.1989,-35.4608,84.33,58,57,14.12,broken clouds
405,Wattegama,LK,6.7989,81.4808,73.69,94,54,3.22,broken clouds
406,Horsham,GB,51.064,-0.3272,45.01,90,75,4.61,fog
407,Kruisfontein,ZA,-34.0033,24.7314,67.78,66,31,4.45,scattered clouds
408,Grindavik,IS,63.8424,-22.4338,42.75,81,75,27.63,broken clouds
409,Iberia,US,29.9502,-91.7507,56.03,38,0,12.66,clear sky
410,Urusha,RU,54.05,122.9,-28.28,97,99,2.51,overcast clouds
411,Mount Isa,AU,-20.7333,139.5,74.97,29,0,4.61,clear sky
412,Pandan,PH,14.0453,124.1694,80.83,83,96,15.77,overcast clouds
413,Lavrentiya,RU,65.5833,-171,25.97,92,100,10,overcast clouds
414,Praia Da Vitoria,PT,38.7333,-27.0667,62.76,100,75,25.37,light rain
415,Nigde,TR,37.8333,34.75,42.64,85,16,5.66,few clouds
416,Fatehpur,IN,25.9333,80.8,62.78,34,0,3.09,clear sky
417,Kudahuvadhoo,MV,2.6708,72.8944,80.26,73,74,3.36,heavy intensity rain
418,Nuuk,GL,64.1835,-51.7216,18.21,67,75,21.85,broken clouds
419,Angoram,PG,-4.0625,144.0661,74.52,98,100,1.79,overcast clouds
420,Tuatapere,NZ,-46.1333,167.6833,43.02,84,81,8.3,broken clouds
421,Yatou,CN,37.15,122.3833,28.42,69,100,8.16,overcast clouds
422,Sulangan,PH,11.1373,123.7228,81.59,81,100,13.49,overcast clouds
423,Salekhard,RU,66.53,66.6019,-6.29,96,10,8.23,clear sky
424,Catabola,AO,-12.15,17.2833,67.78,77,87,0.96,light rain
425,Thinadhoo,MV,0.5333,72.9333,81.19,67,91,4.94,overcast clouds
426,The Valley,AI,18.217,-63.0578,85.86,65,40,14.97,scattered clouds
427,Puerto Escondido,MX,15.85,-97.0667,83.23,69,20,8.05,few clouds
428,Lieksa,FI,63.3167,30.0167,26.31,97,100,1.36,overcast clouds
429,Sola,VU,-13.8833,167.55,81.57,77,74,10.74,broken clouds
430,Tual,ID,-5.6667,132.75,80.74,72,100,6.35,overcast clouds
431,Honningsvag,NO,70.9821,25.9704,37.15,93,100,10.36,overcast clouds
432,Dzhebariki-Khaya,RU,62.2167,135.8,-28.8,99,100,0.72,overcast clouds
433,Challapata,BO,-18.9,-66.7667,55.33,12,0,9.62,clear sky
434,Vila Franca Do Campo,PT,37.7167,-25.4333,64.2,71,35,7.9,scattered clouds
435,Artyom,AZ,40.4723,50.333,44.74,56,100,9.31,overcast clouds
436,Langreo,ES,43.2957,-5.6842,53.46,76,3,2.64,clear sky
437,Trumbull,US,41.3167,-80.7665,31.64,68,100,11.99,overcast clouds
438,Ambulu,ID,-8.345,113.6058,74.64,83,99,0.65,overcast clouds
439,Raymondville,US,26.4815,-97.7831,59.23,76,96,7.74,overcast clouds
440,Nouadhibou,MR,20.931,-17.0347,71.58,64,81,14.97,broken clouds
441,Caranavi,BO,-15.8167,-67.55,81.55,52,21,6.02,few clouds
442,Port-Gentil,GA,-0.7193,8.7815,82.36,83,75,11.5,broken clouds
443,Impfondo,CG,1.6381,18.0667,74.1,88,79,2.82,light rain
444,Mali,GN,12.079,-12.2982,77.65,26,81,4.43,broken clouds
445,Itajuba,BR,-22.4256,-45.4528,83.75,61,35,3,scattered clouds
446,Daru,PG,-9.0763,143.2092,76.84,91,100,11.45,overcast clouds
447,Mayumba,GA,-3.432,10.6554,79.65,85,100,6.04,light rain
448,Emerald,AU,-23.5333,148.1667,59.34,79,0,8.05,clear sky
449,Vaitape,PF,-16.5167,-151.75,79.52,79,77,14.76,light rain
450,Mbabane,SZ,-26.3167,31.1333,61.41,60,1,4.29,clear sky
451,Beloha,MG,-25.1667,45.05,73.09,85,98,10.96,overcast clouds
452,Coracora,PE,-15.0333,-73.7833,61.16,27,0,12.35,clear sky
453,Alpena,US,45.0617,-83.4327,33.19,67,100,9.22,overcast clouds
454,Mullovka,RU,54.2,49.4,6.62,94,47,4.54,scattered clouds
455,Sijunjung,ID,-0.6876,100.9537,72.32,98,100,0.81,overcast clouds
456,Kirkuk,IQ,35.4681,44.3922,61.45,71,1,2.24,clear sky
457,Valparaiso,CL,-33.0393,-71.6273,66.43,72,20,14.97,few clouds
458,Wau,SS,7.7029,27.9953,87.01,25,73,4.07,broken clouds
459,Broome,US,42.2506,-75.833,37.38,59,100,17.27,overcast clouds
460,Magway,MM,20.15,94.9167,74.37,77,12,3.33,few clouds
461,Mange,SL,8.9167,-12.85,82.45,70,92,6.46,light rain
462,Aquitania,CO,5.5197,-72.8875,59.67,63,30,1.16,scattered clouds
463,Husavik,IS,66.0449,-17.3389,37.08,70,1,18.92,clear sky
464,Nanma,CN,36.1817,118.1583,24.57,25,99,3,overcast clouds
465,Winnemucca,US,40.973,-117.7357,44.65,36,75,16.11,broken clouds
466,Karlstad,SE,59.3793,13.5036,35.62,95,100,8.12,overcast clouds
467,Lenger,KZ,42.183,69.8839,22.44,79,99,2.06,overcast clouds
468,Santa Isabel Do Rio Negro,BR,-0.4139,-65.0192,92.82,47,77,5.21,broken clouds
469,Dharchula,IN,29.85,80.5333,54.37,30,8,7.09,clear sky
470,Ketchikan,US,55.3422,-131.6461,19.87,68,75,0,broken clouds
471,Saint-Ambroise,CA,48.5501,-71.3324,30.58,74,99,13.71,light snow
472,Provideniya,RU,64.3833,-173.3,30.45,99,93,6.93,snow
473,Ulladulla,AU,-35.35,150.4667,59.63,86,100,4.23,overcast clouds
474,Biasca,CH,46.3597,8.9697,44.65,76,80,3.65,broken clouds
475,Muros,ES,42.7762,-9.0603,54.09,77,0,3.51,clear sky
476,Kurayoshi,JP,35.4333,133.8167,41.36,87,100,7.31,overcast clouds
477,Kikwit,CD,-5.041,18.8162,73.02,92,98,2.24,overcast clouds
478,Kargil,IN,34.5667,76.1,27.09,37,100,2.55,overcast clouds
479,Hermagor,AT,46.6272,13.3672,40.33,96,91,3.98,overcast clouds
480,Udachnyy,RU,66.4167,112.4,-17.55,75,99,11.56,overcast clouds
481,Baiyin,CN,36.5583,104.2081,21.06,32,3,0.63,clear sky
482,Geraldton,AU,-28.7667,114.6,64.81,77,75,6.91,broken clouds
483,Cabo San Lucas,MX,22.8909,-109.9124,82.06,75,20,11.5,few clouds
484,Alofi,NU,-19.0595,-169.9187,69.69,100,68,2.3,broken clouds
485,Marmarion,GR,38.0484,24.3204,62.04,80,43,11.92,scattered clouds
486,Timizart,DZ,36.8,4.2667,53.85,63,97,6.71,overcast clouds
487,Ormara,PK,25.2088,64.6357,76.6,52,46,7.87,scattered clouds
488,Dalbandin,PK,28.8947,64.4101,59.95,29,84,5.23,broken clouds
489,Malakal,SS,9.5334,31.6605,86.29,26,49,6.08,scattered clouds
490,Atambua,ID,-9.1061,124.8925,73.78,88,94,2.55,overcast clouds
491,Hukuntsi,BW,-24,21.75,89.28,17,14,6.31,few clouds
492,Puerto Ayacucho,VE,5.6639,-67.6236,87.49,55,13,10.74,few clouds
493,Svetlyy,RU,54.675,20.1347,32.05,92,87,7.38,overcast clouds
494,Moba,CN,33.2288,105.0179,21.49,62,0,5.39,clear sky
495,Laguna,US,38.421,-121.4238,50.76,89,100,21.85,light rain
496,Kishtwar,IN,33.3167,75.7667,49.19,40,100,4.65,overcast clouds
497,Beringovskiy,RU,63.05,179.3167,35.1,99,100,15.1,overcast clouds
498,Talavera,PH,15.6167,120.9333,73.76,81,94,4.76,overcast clouds
499,Yago,MX,21.8333,-105.0667,86.18,38,6,1.48,clear sky
500,Rosetta,EG,31.4044,30.4164,66.96,68,0,7.76,clear sky
501,Kirakira,SB,-10.4544,161.9205,79.77,81,98,3.06,moderate rain
502,Forestville,US,38.8451,-76.875,43.9,43,0,11.5,clear sky
503,Aykhal,RU,66,111.5,-23.76,100,100,9.22,overcast clouds
504,Ayan,RU,56.45,138.1667,-2.06,69,86,15.12,overcast clouds
505,Kommunar,RU,59.6206,30.39,18.45,89,100,3.49,overcast clouds
506,Prince Rupert,CA,54.3161,-130.3201,24.49,61,40,14.97,scattered clouds
507,Tynda,RU,55.1667,124.7167,-35.82,98,85,2.98,overcast clouds
508,Port-Cartier,CA,50.0334,-66.8654,34.02,76,44,16.22,scattered clouds
509,Karabulak,RU,43.3036,44.8964,34.79,82,97,8.1,overcast clouds
510,Scarborough,GB,54.2797,-0.4044,41.32,91,65,1.99,broken clouds
511,Anadyr,RU,64.75,177.4833,37.9,86,75,26.84,broken clouds
512,Kibre Mengist,ET,5.8833,38.9833,57.49,58,68,1.34,broken clouds
513,Shingu,JP,33.7333,135.9833,42.12,79,42,6.64,scattered clouds
514,Gabi,PH,7.6215,126.092,73.35,97,100,1.92,overcast clouds
515,Jacareacanga,BR,-6.2222,-57.7528,90.05,55,100,0.11,overcast clouds
516,Carballo,ES,43.213,-8.691,55.09,76,0,4.38,clear sky
517,Pitimbu,BR,-7.4706,-34.8086,86.59,62,39,13.42,scattered clouds
518,Rusne,LT,55.2964,21.3758,25.92,86,97,8.48,overcast clouds
519,Dali,CN,25.7,100.1833,50.4,91,0,4.18,clear sky
520,Cockburn Town,TC,21.4612,-71.1419,84.16,54,40,13.8,scattered clouds
521,Atar,MR,20.5169,-13.0499,86.72,10,11,9.06,few clouds
522,Codajas,BR,-3.8367,-62.0569,92.14,51,36,4.07,scattered clouds
523,Taman,RU,45.2117,36.7161,45.68,68,100,23.8,overcast clouds
524,Lang Son,VN,21.8333,106.7333,45.05,91,100,7.87,overcast clouds
525,Lockport,US,41.5895,-88.0578,31.19,65,0,7,clear sky
526,Shelburne,CA,44.0787,-80.2041,32.45,83,85,19.37,overcast clouds
527,Dire Dawa,ET,9.5931,41.8661,67.89,27,47,5.48,scattered clouds
528,Beni Suef,EG,29.0731,31.0979,66.52,37,0,5.53,clear sky
529,Ugoofaaru,MV,5.6667,73,81.3,73,33,4.03,scattered clouds
530,Mananara,MG,-16.1667,49.7667,74.89,90,14,4.63,light rain
531,Port Macquarie,AU,-31.4333,152.9167,58.89,83,100,12.08,overcast clouds
532,Bilibino,RU,68.0546,166.4372,4.89,97,86,4.23,overcast clouds
533,Mesyagutovo,RU,55.5303,58.2528,10.11,91,100,6.71,overcast clouds
534,Rosarito,MX,32.3333,-117.0333,58.15,65,92,3.38,overcast clouds
535,Kedrovka,RU,55.5333,86.05,4.08,98,81,2.98,broken clouds
536,Kemin,KG,42.7846,75.6892,22.84,80,91,4.05,overcast clouds
537,Ponnani,IN,10.767,75.9252,79.92,83,13,4.36,few clouds
538,Camiri,BO,-20.05,-63.5167,80.38,47,75,4.61,broken clouds
539,Auki,SB,-8.7676,160.7034,77.41,87,100,3.85,overcast clouds
540,Westport,US,41.1415,-73.3579,42.89,49,100,14,overcast clouds
541,Greeneville,US,36.1632,-82.831,43.43,36,0,6.91,clear sky
542,Quesnel,CA,52.9999,-122.5029,-16.1,76,100,0,overcast clouds
543,Adrar,MR,20.5022,-10.0711,81.97,11,6,4.7,clear sky
544,Mackay,AU,-21.15,149.2,68.2,81,95,13.11,overcast clouds
545,Cooma,AU,-36.2333,149.1333,48.06,96,81,3.18,broken clouds
546,Maracaju,BR,-21.6144,-55.1683,96.76,23,100,7.18,overcast clouds
547,Banatsko Novo Selo,RS,44.9907,20.7848,40.73,74,100,8.59,overcast clouds
548,Kuminskiy,RU,58.6667,66.5667,-8.34,97,77,2.04,broken clouds
549,Takoradi,GH,4.8845,-1.7554,82.29,73,92,8.68,light rain
550,Presidencia Roque Saenz Pena,AR,-26.7852,-60.4388,92.1,37,49,13.06,scattered clouds
551,Paita,PE,-5.0892,-81.1144,74.59,67,30,11.79,scattered clouds
552,Mao,ES,39.8885,4.2658,52.36,82,20,5.75,few clouds
553,Abu Kamal,SY,34.4506,40.9171,60.42,69,16,6.38,few clouds
554,Luderitz,NA,-26.6481,15.1594,67.48,72,16,23.29,few clouds
555,Cabedelo,BR,-6.9811,-34.8339,86.67,62,63,14.5,broken clouds
556,Muli,MV,2.9167,73.5667,80.8,72,40,1.68,scattered clouds
557,Port Hedland,AU,-20.3167,118.5667,78.85,83,2,6.91,clear sky
558,Santa Maria,BR,-29.6842,-53.8069,92.5,40,75,6.91,broken clouds
559,Asaba,NG,6.2006,6.7338,89.64,40,70,0.74,broken clouds
560,Tynset,NO,62.2759,10.7824,26.22,94,99,3.78,overcast clouds
561,San Andres,CO,12.5847,-81.7006,86.02,70,20,14.97,few clouds
562,Sorland,NO,67.667,12.6934,40.86,73,43,5.7,scattered clouds
563,Pasighat,IN,28.0667,95.3333,63.9,54,0,3.38,clear sky
564,Lynn Haven,US,30.2455,-85.6483,60.96,40,0,11.5,clear sky
565,Bowen,AU,-20.0167,148.2333,70.9,76,88,10.63,overcast clouds
566,Oktyabrskoye,RU,43.0645,44.7417,32.14,100,100,4.47,light rain
567,Coquimbo,CL,-29.9533,-71.3436,67.73,68,75,12.66,broken clouds
568,Tazovskiy,RU,67.4667,78.7,-5.66,98,92,8.7,overcast clouds
569,Liwale,TZ,-9.7667,37.9333,70.21,85,66,3.31,light rain
570,Sergeyevka,KZ,53.88,67.4158,3.29,83,100,10.2,overcast clouds
571,Lircay,PE,-12.9896,-74.7205,66.92,15,2,4.72,clear sky
572,Goryachegorsk,RU,55.4053,88.9154,-1.88,100,99,1.63,overcast clouds
573,Molokovo,RU,58.1661,36.7628,6.1,90,41,4.29,scattered clouds
574,Uribia,CO,11.7139,-72.266,85.73,54,23,11.25,few clouds
575,Goroka,PG,-6.0834,145.3873,59.14,97,97,0.81,overcast clouds
576,Port Augusta,AU,-32.5,137.7667,65.61,39,5,6.49,clear sky
577,Belyy Yar,RU,53.6039,91.3903,-5.91,77,100,0,smoke
578,Weihe,CN,32.9952,105.3247,26.19,56,1,2.57,clear sky
579,Namibe,AO,-15.1961,12.1522,70.95,78,80,9.44,broken clouds
580,Botshabelo,ZA,-29.2702,26.7052,74.57,35,92,5.5,light rain
581,Saint Pete Beach,US,27.7253,-82.7412,76.24,59,0,14.97,clear sky
582,Ibra,OM,22.6906,58.5334,69.33,33,41,2.73,scattered clouds
583,Rawatbhata,IN,24.9333,75.5833,63.52,40,0,3.56,clear sky
584,Yantai,CN,37.5333,121.4,32.2,55,99,9.42,overcast clouds
585,Kochi,IN,9.9399,76.2602,80.02,81,22,2.71,few clouds
586,Longhua,CN,23.6137,114.1919,46.54,82,100,5.68,overcast clouds
587,Halifax,CA,44.6453,-63.5724,43.45,67,75,25.32,broken clouds
588,Sampit,ID,-2.5333,112.95,74.05,97,99,1.74,overcast clouds
589,Margate,GB,51.3813,1.3862,46.9,90,67,12.35,broken clouds
590,Labuhan,ID,-6.8844,112.2051,78.19,78,99,5.19,overcast clouds
591,Khuzdar,PK,27.7384,66.6434,59.25,21,52,3.31,broken clouds
592,Haines Junction,CA,60.7522,-137.5108,-2.25,78,100,3.44,overcast clouds
593,Vitim,RU,59.4511,112.5578,-14.6,98,100,4.59,overcast clouds
594,Nakhon Phanom,TH,17.3333,104.4167,71.01,70,92,8.99,overcast clouds
595,Linhai,CN,28.85,121.1167,37.92,86,100,10,overcast clouds
596,Tiksi,RU,71.6872,128.8694,-11.15,96,100,12.53,overcast clouds
597,Sayan,PE,-11.1361,-77.1933,78.82,51,15,11.25,few clouds
598,Mazagao,BR,-0.115,-51.2894,89.65,56,64,5.86,broken clouds
599,Taos,US,36.4072,-105.5731,48.25,45,0,1.99,clear sky
600,Igrim,RU,63.1906,64.4162,-8.97,99,9,3.33,clear sky
601,Rovaniemi,FI,66.5,25.7167,27.81,93,100,2.3,overcast clouds
602,Chifeng,CN,42.2683,118.9636,9.45,40,0,5.3,clear sky
603,Saint-Marc-Des-Carrieres,CA,46.6834,-72.0491,33.87,51,99,12.66,overcast clouds
604,Methoni,GR,36.8197,21.7049,59.22,75,53,20.22,broken clouds
605,Gornopravdinsk,RU,60.05,69.9,-13.7,95,11,0.85,few clouds
606,Bahia Blanca,AR,-38.7196,-62.2724,75.29,41,0,1.99,clear sky
607,Taoudenni,ML,22.6783,-3.9836,76.24,8,90,5.37,overcast clouds
608,Ranfurly,NZ,-45.1333,170.1,41.11,98,95,8.93,overcast clouds
609,Nema,RU,57.5067,50.5011,4.51,99,91,3.67,overcast clouds
610,Yabelo,ET,4.8833,38.0833,63.36,41,97,13.11,overcast clouds
611,Mgandu,TZ,-5.95,34.1333,65.86,73,98,3.15,light rain
612,Ayagoz,KZ,47.9714,80.4392,17.69,95,100,8.86,overcast clouds
613,Kaeo,NZ,-35.1,173.7833,55.33,92,95,3.76,overcast clouds
614,Talnakh,RU,69.4865,88.3972,0.43,99,100,1.74,overcast clouds
615,Grand Gaube,MU,-20.0064,57.6608,76.37,69,33,1.01,scattered clouds
616,Viedma,AR,-40.8135,-62.9967,78.03,19,0,2.95,clear sky
617,Lewisporte,CA,49.2499,-55.0482,38.91,87,88,21,overcast clouds
618,San Carlos,VE,9.6612,-68.5827,87.98,45,11,5.93,few clouds
619,Samarinda,ID,-0.5,117.15,72.64,99,95,2.26,overcast clouds
620,Gijon,ES,43.5357,-5.6615,55.8,71,13,14,few clouds
621,Marawi,PH,7.9986,124.2928,69.49,91,96,1.19,overcast clouds
622,Gilgit,PK,35.9221,74.3087,44.22,40,100,0.67,overcast clouds
623,Chapais,CA,49.7834,-74.8492,22.78,88,100,19.35,light snow
624,Ati,TD,13.2154,18.3353,83.68,17,80,8.7,broken clouds
625,Ladushkin,RU,54.5703,20.171,31.86,93,81,6.82,broken clouds
626,Hanna,CA,51.6334,-111.9018,-8.14,82,100,5.99,overcast clouds
627,Hami,CN,42.8,93.45,15.85,18,70,2.82,broken clouds
628,Hirado,JP,33.3597,129.5531,46.29,55,100,10.18,overcast clouds
629,Bom Jesus Da Lapa,BR,-13.255,-43.4181,84.02,63,91,3.65,overcast clouds
630,Arlit,NE,18.7369,7.3853,77.2,14,98,7.27,overcast clouds
631,Quelimane,MZ,-17.8786,36.8883,78.75,65,20,5.75,few clouds
632,Mayo,US,38.8876,-76.5119,44.11,44,0,14.97,clear sky
633,Mehendiganj,BD,22.8167,90.5333,70.16,65,0,7.9,clear sky
634,Kenai,US,60.5544,-151.2583,3.29,92,0,3.44,clear sky
635,Strelka,RU,58.0728,93.0344,-19.46,100,89,1.23,overcast clouds
636,Mehamn,NO,71.0357,27.8492,31.95,100,75,9.22,broken clouds
637,Humberto De Campos,BR,-2.5983,-43.4611,84.47,68,80,9.86,broken clouds
638,Jiangyou,CN,31.7667,104.7167,38.23,85,14,1.7,few clouds
639,Chute-Aux-Outardes,CA,49.1168,-68.399,30.18,86,75,17.27,broken clouds
640,Usinsk,RU,65.9939,57.5281,-6.27,99,84,9.75,broken clouds
641,Fare,PF,-16.7,-151.0167,79.81,79,71,16.51,broken clouds
642,Chukhloma,RU,58.7525,42.6825,8.38,97,97,1.68,overcast clouds
643,Tommot,RU,58.9564,126.2925,-11.24,93,100,10.16,overcast clouds
644,Perigueux,FR,45.1833,0.7167,46.08,70,92,7.87,overcast clouds
645,Nellikkuppam,IN,11.7667,79.6833,77.27,88,33,8.48,scattered clouds
646,Urengoy,RU,65.9667,78.3667,-7.38,98,92,7.76,overcast clouds
647,Hay River,CA,60.8156,-115.7999,-14.82,76,20,5.75,few clouds
648,Suleja,NG,9.1758,7.1808,90.59,29,58,3.18,broken clouds
649,Curuca,BR,-0.7289,-47.8481,82.53,78,90,7.11,overcast clouds
650,Benxi,CN,41.2886,123.765,3.52,44,0,3.65,clear sky
651,Kalianget,ID,-7.05,113.9333,80.62,78,99,1.72,overcast clouds
652,Salinas,US,36.6777,-121.6555,58.23,67,100,24.16,overcast clouds
653,Potoci,BA,43.4086,17.8786,49.51,71,75,3.44,broken clouds
654,Stutterheim,ZA,-32.5708,27.424,67.62,89,48,7.29,moderate rain
655,Iztapa,GT,13.9333,-90.7075,86.05,70,0,11.5,clear sky
656,Petropavlovsk-Kamchatskiy,RU,53.0452,158.6483,7.39,85,20,4.47,few clouds
657,Preeceville,CA,51.95,-102.6677,2.88,95,100,6.42,overcast clouds
658,Nenjiang,CN,49.1833,125.2167,-14.75,93,46,5.64,scattered clouds
659,Moron,AR,-34.6534,-58.6198,74.01,69,100,14.41,overcast clouds
660,Bantry,IE,51.6833,-9.45,50.79,85,100,8.52,overcast clouds
661,Manokwari,ID,-0.8667,134.0833,77.5,81,100,3.44,overcast clouds
662,Waddan,LY,29.1614,16.139,60.6,33,1,6.49,clear sky
663,Mityana,UG,0.4175,32.0228,63.25,94,91,1.92,overcast clouds
664,Tolaga Bay,NZ,-38.3667,178.3,55.71,80,65,4.32,broken clouds
665,Yumen,CN,40.2833,97.2,11.17,68,76,12.08,broken clouds
666,Monrovia,LR,6.3005,-10.7969,81.21,74,90,6.6,overcast clouds
667,Pochutla,MX,15.7432,-96.4661,89.82,46,48,5.68,scattered clouds
668,Nemuro,JP,43.3236,145.575,28.26,50,4,17.31,clear sky
669,Devils Lake,US,48.1128,-98.8651,13.95,83,0,10.36,clear sky
670,Ajdabiya,LY,30.7554,20.2263,60.75,53,0,1.97,clear sky
671,Indramayu,ID,-6.3264,108.32,79.93,77,93,1.07,light rain
672,Ocumare Del Tuy,VE,10.1165,-66.7761,83.1,47,8,7.05,clear sky
673,Rogers,US,36.3668,-95.5836,50.76,34,40,20.71,scattered clouds
674,Jiuquan,CN,39.7432,98.5174,14.54,80,100,2.08,overcast clouds
675,Walvis Bay,NA,-22.9575,14.5053,68.95,68,13,17.27,few clouds
676,Egvekinot,RU,66.3167,-179.1667,27.19,99,100,13.33,snow
677,Buchanan,LR,5.8808,-10.0467,80.89,76,86,6.82,overcast clouds
678,Ciudad Bolivar,VE,8.1222,-63.5497,89.64,39,4,8.72,clear sky
679,Moree,AU,-29.4667,149.85,59.11,65,0,6.17,clear sky
680,Port Moresby,PG,-9.4431,147.1797,74.62,94,20,5.75,few clouds
681,Ormond Beach,US,29.2858,-81.0559,75.29,76,0,15.99,clear sky
682,Massaguet,TD,12.4755,15.4365,82.31,17,100,6.15,overcast clouds
683,Panjab,AF,34.388,67.0233,31.77,48,19,0.18,few clouds
684,Raga,SS,8.4596,25.678,84.2,24,100,3.13,overcast clouds
685,Marabba,SD,12.35,32.1833,88.72,18,100,10.85,overcast clouds
686,Shuiji,CN,27.4214,118.345,41.47,97,100,2.28,overcast clouds
687,Gat,IL,31.61,34.7642,65.39,58,0,6.44,clear sky
688,Jackson,US,42.4165,-122.8345,39.58,85,75,4.61,broken clouds
689,Panambi,BR,-28.2925,-53.5017,90.07,31,18,10.4,few clouds
690,Kyra,RU,49.5776,111.9753,0.37,73,100,12.1,overcast clouds
691,Hervey Bay,AU,-25.2986,152.8535,64.38,84,100,18.45,overcast clouds
692,Izberbash,RU,42.5696,47.8645,44.65,75,95,14.88,overcast clouds
693,General Roca,AR,-39.0333,-67.5833,82.62,38,0,5.19,clear sky
694,Rocha,UY,-34.4833,-54.3333,84.11,57,88,9.08,overcast clouds
695,Ojinaga,MX,29.5667,-104.4167,63.57,54,0,3.44,clear sky
696,Petukhovo,RU,55.0692,67.9019,1.99,78,100,7.52,overcast clouds
697,Lamu,KE,-2.2717,40.902,80.82,85,98,8.7,overcast clouds
698,Plainfield,US,40.6168,-74.4173,42.82,49,100,14.97,overcast clouds
699,Baoqing,CN,46.3317,132.2111,0.5,73,8,8.03,clear sky
700,Asyut,EG,27.181,31.1837,65.84,35,0,6.51,clear sky
701,Cavaillon,FR,43.8312,5.0359,49.19,71,20,12.66,few clouds
702,Amapa,BR,1,-52,80.83,89,71,2.84,broken clouds
703,Nazilli,TR,37.9163,28.3223,52.9,91,96,3.89,overcast clouds
704,Coolum Beach,AU,-26.5333,153.1,64.11,84,100,16.37,overcast clouds
705,Vanavara,RU,60.34,102.2797,-16.2,95,94,3.96,overcast clouds
706,Krutinka,RU,56.0055,71.5113,-5.66,90,15,5.77,few clouds
707,Maria Chiquita,PA,9.4431,-79.7558,89.15,66,16,13.06,light rain
708,Locri,IT,38.2414,16.2623,55.38,76,65,5.5,broken clouds
709,Burnie,AU,-41.0667,145.9167,54.95,79,76,8.28,broken clouds
710,Polis,CY,35.0367,32.4264,60.62,78,12,2.35,few clouds
711,Cozumel,MX,20.5083,-86.9458,86.07,83,40,18.01,scattered clouds
